[
	{
		"id": 19032335,
		"store_name": "포보 홍대점",
		"main_menu": "음식점 > 아시아음식 > 동남아음식",
		"address": "서울 마포구 홍익로 3-5",
		"longitude": 126.923664995596,
		"latitude": 37.5528161826334,
		"time": 0,
		"phone_number": "",
		"image": 0,
		"user": 0,
		"category": "음식점"
	},
	{
		"id": 12771116,
		"store_name": "카미야",
		"main_menu": "음식점 > 일식 > 돈까스,우동",
		"address": "서울 마포구 와우산로21길 28-6",
		"longitude": 126.9223637900431,
		"latitude": 37.552582876796265,
		"time": 0,
		"phone_number": "",
		"image": 0,
		"user": 0,
		"category": "음식점"
	},
	{
		"id": 18730682,
		"store_name": "타코몽",
		"main_menu": "음식점 > 일식",
		"address": "서울 서대문구 신촌로 49",
		"longitude": 126.93209112639984,
		"latitude": 37.557064126925475,
		"time": 0,
		"phone_number": "",
		"image": 0,
		"user": 0,
		"category": "음식점"
	},
	{
		"id": 5744671,
		"store_name": "카츠오모이 홍대점",
		"main_menu": "음식점 > 일식 > 돈까스,우동",
		"address": "서울 마포구 와우산로 162-14",
		"longitude": 126.931064295456,
		"latitude": 37.5549615049644,
		"time": 0,
		"phone_number": "010-8311-7117",
		"image": 0,
		"user": 0,
		"category": "음식점"
	},
	{
		"id": 1722785841,
		"store_name": "금복식당",
		"main_menu": "음식점 > 일식",
		"address": "서울 마포구 독막로14길 24",
		"longitude": 126.92217908089042,
		"latitude": 37.54737498522558,
		"time": 0,
		"phone_number": "02-336-4506",
		"image": 0,
		"user": 0,
		"category": "음식점"
	},
	{
		"id": 1370689707,
		"store_name": "우리엄마레시피",
		"main_menu": "음식점 > 한식 > 육류,고기 > 닭요리",
		"address": "서울 마포구 와우산로15길 49",
		"longitude": 126.920939757286,
		"latitude": 37.5486445699209,
		"time": 0,
		"phone_number": "02-6080-1446",
		"image": 0,
		"user": 0,
		"category": "음식점"
	},
	{
		"id": 27389001,
		"store_name": "비스트로큐슈",
		"main_menu": "음식점 > 퓨전요리 > 퓨전일식",
		"address": "서울 마포구 와우산로30길 13",
		"longitude": 126.929955953401,
		"latitude": 37.5541607667941,
		"time": 0,
		"phone_number": "02-322-1913",
		"image": 0,
		"user": 0,
		"category": "음식점"
	},
	{
		"id": 1608710893,
		"store_name": "슈슈",
		"main_menu": "음식점 > 일식 > 일본식라면",
		"address": "서울 마포구 홍익로2길 23",
		"longitude": 126.923857747432,
		"latitude": 37.5546831743202,
		"time": 0,
		"phone_number": "",
		"image": 0,
		"user": 0,
		"category": "음식점"
	},
	{
		"id": 1680075315,
		"store_name": "플레이트946",
		"main_menu": "음식점 > 양식 > 이탈리안",
		"address": "서울 마포구 독막로19길 20-6",
		"longitude": 126.925099693068,
		"latitude": 37.548582410034,
		"time": 0,
		"phone_number": "010-5577-6432",
		"image": 0,
		"user": 0,
		"category": "음식점"
	},
	{
		"id": 27272711,
		"store_name": "비스트로주라",
		"main_menu": "음식점 > 양식",
		"address": "서울 마포구 와우산로23길 18-7",
		"longitude": 126.924618957329,
		"latitude": 37.5539953005742,
		"time": 0,
		"phone_number": "02-6406-5640",
		"image": 0,
		"user": 0,
		"category": "음식점"
	},
	{
		"id": 375498117,
		"store_name": "넙딱집 상수점",
		"main_menu": "음식점 > 한식 > 육류,고기",
		"address": "서울 마포구 독막로 104",
		"longitude": 126.92503853802233,
		"latitude": 37.54749937093555,
		"time": 0,
		"phone_number": "02-6498-2225",
		"image": 0,
		"user": 0,
		"category": "음식점"
	},
	{
		"id": 15659552,
		"store_name": "미로식당",
		"main_menu": "음식점 > 술집 > 호프,요리주점",
		"address": "서울 마포구 와우산로30길 80",
		"longitude": 126.927898301176,
		"latitude": 37.5520151534055,
		"time": 0,
		"phone_number": "02-326-3777",
		"image": 0,
		"user": 0,
		"category": "음식점"
	},
	{
		"id": 2011219962,
		"store_name": "마코토",
		"main_menu": "음식점 > 일식",
		"address": "서울 마포구 와우산로21길 12-3",
		"longitude": 126.923126546744,
		"latitude": 37.5525851778508,
		"time": 0,
		"phone_number": "",
		"image": 0,
		"user": 0,
		"category": "음식점"
	},
	{
		"id": 2024629258,
		"store_name": "상수곱창",
		"main_menu": "음식점 > 한식 > 육류,고기 > 곱창,막창",
		"address": "서울 마포구 독막로 55",
		"longitude": 126.919428501398,
		"latitude": 37.5480849293215,
		"time": 0,
		"phone_number": "02-334-1222",
		"image": 0,
		"user": 0,
		"category": "음식점"
	},
	{
		"id": 490667330,
		"store_name": "제순식당 홍대점",
		"main_menu": "음식점 > 한식",
		"address": "서울 마포구 와우산로15길 30",
		"longitude": 126.921627123994,
		"latitude": 37.5492793310327,
		"time": 0,
		"phone_number": "02-336-2008",
		"image": 0,
		"user": 0,
		"category": "음식점"
	},
	{
		"id": 1706900559,
		"store_name": "옛맛서울불고기",
		"main_menu": "음식점 > 한식 > 육류,고기 > 불고기,두루치기",
		"address": "서울 마포구 독막로 56",
		"longitude": 126.919517181494,
		"latitude": 37.5477002634091,
		"time": 0,
		"phone_number": "02-336-9371",
		"image": 0,
		"user": 0,
		"category": "음식점"
	},
	{
		"id": 747903409,
		"store_name": "야키토리 나루토",
		"main_menu": "음식점 > 술집 > 일본식주점",
		"address": "서울 마포구 독막로9길 26",
		"longitude": 126.920207967712,
		"latitude": 37.5493540644272,
		"time": 0,
		"phone_number": "02-332-6835",
		"image": 0,
		"user": 0,
		"category": "음식점"
	},
	{
		"id": 1183957472,
		"store_name": "후계동",
		"main_menu": "음식점 > 한식 > 육류,고기 > 닭요리",
		"address": "서울 마포구 독막로 76",
		"longitude": 126.921710343496,
		"latitude": 37.547614341015,
		"time": 0,
		"phone_number": "",
		"image": 0,
		"user": 0,
		"category": "음식점"
	},
	{
		"id": 2005749800,
		"store_name": "루시드 서울",
		"main_menu": "음식점 > 카페",
		"address": "서울 마포구 독막로14길 24",
		"longitude": 126.922190396995,
		"latitude": 37.5473749926829,
		"time": 0,
		"phone_number": "0507-1419-9353",
		"image": 0,
		"user": 0,
		"category": "카페"
	},
	{
		"id": 627475311,
		"store_name": "카타코토",
		"main_menu": "음식점 > 일식",
		"address": "서울 마포구 동교로 148-6",
		"longitude": 126.918587960766,
		"latitude": 37.5551337611148,
		"time": 0,
		"phone_number": "",
		"image": 0,
		"user": 0,
		"category": "음식점"
	},
	{
		"id": 1900893477,
		"store_name": "슬로우캘리 연남본점",
		"main_menu": "음식점 > 양식",
		"address": "서울 마포구 동교로38길 35",
		"longitude": 126.92580901460133,
		"latitude": 37.56135179473061,
		"time": 0,
		"phone_number": "",
		"image": 0,
		"user": 0,
		"category": "음식점"
	},
	{
		"id": 644888486,
		"store_name": "뇽즈",
		"main_menu": "음식점 > 양식",
		"address": "서울 마포구 연희로 17-1",
		"longitude": 126.926409752243,
		"latitude": 37.5604655900259,
		"time": 0,
		"phone_number": "",
		"image": 0,
		"user": 0,
		"category": "음식점"
	},
	{
		"id": 1475935817,
		"store_name": "야키토리 미식서울",
		"main_menu": "음식점 > 일식",
		"address": "서울 마포구 성미산로 189-5",
		"longitude": 126.926520257276,
		"latitude": 37.5631902721974,
		"time": 0,
		"phone_number": "",
		"image": 0,
		"user": 0,
		"category": "음식점"
	},
	{
		"id": 1280503510,
		"store_name": "릴린",
		"main_menu": "음식점 > 아시아음식",
		"address": "서울 마포구 동교로34길 17",
		"longitude": 126.925291043203,
		"latitude": 37.5609478216435,
		"time": 0,
		"phone_number": "010-6225-6036",
		"image": 0,
		"user": 0,
		"category": "음식점"
	},
	{
		"id": 16846810,
		"store_name": "원당감자탕 홍대점",
		"main_menu": "음식점 > 한식 > 감자탕 > 원당감자탕",
		"address": "서울 마포구 와우산로21길 20-6",
		"longitude": 126.922931866498,
		"latitude": 37.5526138828749,
		"time": 0,
		"phone_number": "",
		"image": 0,
		"user": 0,
		"category": "음식점"
	},
	{
		"id": 16527008,
		"store_name": "대왕고추장불고기 홍대본점",
		"main_menu": "음식점 > 한식 > 육류,고기 > 불고기,두루치기",
		"address": "서울 마포구 잔다리로6길 34-6",
		"longitude": 126.920985919556,
		"latitude": 37.5520828099529,
		"time": 0,
		"phone_number": "",
		"image": 0,
		"user": 0,
		"category": "음식점"
	},
	{
		"id": 10304651,
		"store_name": "델문도",
		"main_menu": "음식점 > 카페",
		"address": "서울 마포구 잔다리로 19-6",
		"longitude": 126.9208744525849,
		"latitude": 37.55047355277373,
		"time": 0,
		"phone_number": "",
		"image": 0,
		"user": 0,
		"category": "카페"
	},
	{
		"id": 677911355,
		"store_name": "야키토리묵",
		"main_menu": "음식점 > 술집 > 일본식주점",
		"address": "서울 마포구 성미산로 165-1",
		"longitude": 126.92458444562307,
		"latitude": 37.56465767525135,
		"time": 0,
		"phone_number": "070-8835-3433",
		"image": 0,
		"user": 0,
		"category": "음식점"
	},
	{
		"id": 1306093287,
		"store_name": "요코스카쓰나미 상수점",
		"main_menu": "음식점 > 일식 > 일식집",
		"address": "서울 마포구 와우산로 39-12",
		"longitude": 126.922506376757,
		"latitude": 37.5482167331689,
		"time": 0,
		"phone_number": "",
		"image": 0,
		"user": 0,
		"category": "음식점"
	},
	{
		"id": 14615296,
		"store_name": "교다이야",
		"main_menu": "음식점 > 일식 > 돈까스,우동",
		"address": "서울 마포구 성지길 39",
		"longitude": 126.913219594114,
		"latitude": 37.5468479633888,
		"time": 0,
		"phone_number": "02-2654-2645",
		"image": 0,
		"user": 0,
		"category": "음식점"
	},
	{
		"id": 1221938697,
		"store_name": "비스트로오라",
		"main_menu": "음식점 > 양식 > 이탈리안",
		"address": "서울 마포구 동교로 244",
		"longitude": 126.92450722848,
		"latitude": 37.5615401788009,
		"time": 0,
		"phone_number": "02-324-3323",
		"image": 0,
		"user": 0,
		"category": "음식점"
	},
	{
		"id": 23734945,
		"store_name": "지로우라멘",
		"main_menu": "음식점 > 일식 > 일본식라면",
		"address": "서울 마포구 와우산로29가길 79",
		"longitude": 126.925171531217,
		"latitude": 37.5536965208231,
		"time": 0,
		"phone_number": "",
		"image": 0,
		"user": 0,
		"category": "음식점"
	},
	{
		"id": 1859634829,
		"store_name": "라멘트럭 상수점",
		"main_menu": "음식점 > 일식 > 일본식라면",
		"address": "서울 마포구 독막로14길 31",
		"longitude": 126.92260220260614,
		"latitude": 37.54747257117926,
		"time": 0,
		"phone_number": "02-336-8456",
		"image": 0,
		"user": 0,
		"category": "음식점"
	},
	{
		"id": 27548461,
		"store_name": "더피자보이즈",
		"main_menu": "음식점 > 양식 > 피자",
		"address": "서울 마포구 독막로9길 6",
		"longitude": 126.919636174129,
		"latitude": 37.5485932339986,
		"time": 0,
		"phone_number": "02-322-9896",
		"image": 0,
		"user": 0,
		"category": "음식점"
	},
	{
		"id": 1426286680,
		"store_name": "소코아 홍대점",
		"main_menu": "음식점 > 일식",
		"address": "서울 마포구 와우산로15길 49",
		"longitude": 126.920962389879,
		"latitude": 37.5486445850724,
		"time": 0,
		"phone_number": "070-8867-2510",
		"image": 0,
		"user": 0,
		"category": "음식점"
	},
	{
		"id": 488474938,
		"store_name": "식스티즈",
		"main_menu": "음식점 > 양식 > 햄버거",
		"address": "서울 마포구 와우산로23길 9",
		"longitude": 126.924351277419,
		"latitude": 37.5534653427281,
		"time": 0,
		"phone_number": "02-6448-1960",
		"image": 0,
		"user": 0,
		"category": "음식점"
	},
	{
		"id": 9012776,
		"store_name": "바다회사랑",
		"main_menu": "음식점 > 한식 > 해물,생선 > 회",
		"address": "서울 마포구 동교로27길 60",
		"longitude": 126.921063142318,
		"latitude": 37.5604116806539,
		"time": 0,
		"phone_number": "02-338-0872",
		"image": 0,
		"user": 0,
		"category": "음식점"
	},
	{
		"id": 1146767160,
		"store_name": "멕시칸식당베르데",
		"main_menu": "음식점 > 양식 > 멕시칸,브라질",
		"address": "서울 마포구 동교로 262-6",
		"longitude": 126.92542270430523,
		"latitude": 37.56284720542015,
		"time": 0,
		"phone_number": "",
		"image": 0,
		"user": 0,
		"category": "음식점"
	}
]